{"version": 0.6, "generator": "Overpass API 0.7.62.10 2d4cfc48", "osm3s": {"timestamp_osm_base": "2026-01-23T10:44:42Z", "copyright": "The data included in this document is from www.openstreetmap.org. The data is made available under ODbL."}, "elements": [{"type": "node", "id": 10689915956, "lat": -37.8239305, "lon": 145.097511}, {"type": "node", "id": 10689915957, "lat": -37.8243092, "lon": 145.0974431}, {"type": "node", "id": 10689915982, "lat": -37.8238771, "lon": 145.0970697}, {"type": "node", "id": 10689915983, "lat": -37.8244363, "lon": 145.0969734}, {"type": "node", "id": 10689915984, "lat": -37.8243865, "lon": 145.0969475}, {"type": "node", "id": 10689915985, "lat": -37.8242467, "lon": 145.0969716}, {"type": "node", "id": 10689915986, "lat": -37.8242159, "lon": 145.0970065}, {"type": "node", "id": 10689915987, "lat": -37.8241142, "lon": 145.0970239}, {"type": "node", "id": 10689915988, "lat": -37.8241195, "lon": 145.0970803}, {"type": "node", "id": 10689915989, "lat": -37.8240443, "lon": 145.097095}, {"type": "node", "id": 10689915990, "lat": -37.8239649, "lon": 145.0970534}, {"type": "way", "id": 1149050187, "nodes": [10689915982, 10689915956, 10689915957, 10689915983, 10689915984, 10689915985, 10689915986, 10689915987, 10689915988, 10689915989, 10689915990, 10689915982], "tags": {"addr:housenumber": "126", "addr:postcode": "3127", "addr:state": "VIC", "addr:street": "Union Road", "addr:suburb": "Surrey Hills", "air_conditioning": "yes", "branch": "Surrey Hills", "brand": "Coles Local", "brand:wikidata": "Q104850818", "building": "retail", "building:levels": "1", "level": "0", "name": "Coles Local", "opening_hours": "Mo-Su 07:00-21:00", "operator": "Coles Group", "operator:wikidata": "Q1339055", "payment:american_express": "yes", "payment:apple_pay": "yes", "payment:cash": "yes", "payment:coins": "yes", "payment:contactless": "yes", "payment:credit_cards": "yes", "payment:debit_cards": "yes", "payment:google_pay": "yes", "payment:mastercard": "yes", "payment:visa": "yes", "phone": "+61 3 7022 9900", "roof:levels": "0", "shop": "supermarket", "stroller": "yes", "website": "https://www.coles.com.au/", "wheelchair": "yes"}}]}